[
  {
    "lat": 55.7451134,
    "lng": 37.86405,
    "order": 0,
    "name": "Новокосино",
    "admArea": "Восточный административный округ",
    "district": "Новокосино",
    "status": "действует"
  },
  {
    "lat": 55.7522354,
    "lng": 37.8145866,
    "order": 1,
    "name": "Новогиреево",
    "admArea": "Восточный административный округ",
    "district": "Новогиреево",
    "status": "действует"
  },
  {
    "lat": 55.75098,
    "lng": 37.78422,
    "order": 2,
    "name": "Перово",
    "admArea": "Восточный административный округ",
    "district": "Новогиреево",
    "status": "действует"
  },
  {
    "lat": 55.75809,
    "lng": 37.7517,
    "order": 3,
    "name": "Шоссе Энтузиастов",
    "admArea": "Восточный административный округ",
    "district": "Перово",
    "status": "действует"
  },
  {
    "lat": 55.7519341,
    "lng": 37.7174454,
    "order": 4,
    "name": "Авиамоторная",
    "admArea": "Юго-Восточный административный округ",
    "district": "Лефортово",
    "status": "строится"
  },
  {
    "lat": 55.7471161,
    "lng": 37.6807251,
    "order": 5,
    "name": "Площадь Ильича",
    "admArea": "Центральный административный округ",
    "district": "Таганский",
    "status": "действует"
  },
  {
    "lat": 55.7407455,
    "lng": 37.65604,
    "order": 6,
    "name": "Марксистская",
    "admArea": "Центральный административный округ",
    "district": "Таганский",
    "status": "действует"
  },
  {
    "lat": 55.7411232,
    "lng": 37.62614,
    "order": 7,
    "name": "Третьяковская",
    "admArea": "Центральный административный округ",
    "district": "Замоскворечье",
    "status": "действует"
  },
  {
    "lat": 55.79233,
    "lng": 37.55952,
    "order": 8,
    "name": "Петровский парк",
    "admArea": "Северный административный округ",
    "district": "Аэропорт",
    "status": "строится"
  },
  {
    "lat": 55.78643,
    "lng": 37.53502,
    "order": 9,
    "name": "ЦСКА",
    "admArea": "Северный административный округ",
    "district": "Хорошёвский",
    "status": "строится"
  },
  {
    "lat": 55.77643,
    "lng": 37.51981,
    "order": 10,
    "name": "Хорошевская",
    "admArea": "Северный административный округ",
    "district": "Хорошёвский",
    "status": "действует"
  },
  {
    "lat": 55.75723,
    "lng": 37.52571,
    "order": 11,
    "name": "Шелепиха",
    "admArea": "Центральный административный округ",
    "district": "Пресненский",
    "status": "действует"
  },
  {
    "lat": 55.7491,
    "lng": 37.5395,
    "order": 12,
    "name": "Деловой центр",
    "admArea": "Центральный административный округ",
    "district": "Пресненский",
    "status": "действует"
  },
  {
    "lat": 55.7364769,
    "lng": 37.5144,
    "order": 13,
    "name": "Парк Победы",
    "admArea": "Западный административный округ",
    "district": "Дорогомилово",
    "status": "строится"
  },
  {
    "lat": 55.7232,
    "lng": 37.5038,
    "order": 14,
    "name": "Минская",
    "admArea": "Западный административный округ",
    "district": "Дорогомилово",
    "status": "действует"
  },
  {
    "lat": 55.7055,
    "lng": 37.5225,
    "order": 15,
    "name": "Ломоносовский проспект",
    "admArea": "Западный административный округ",
    "district": "Раменки",
    "status": "действует"
  },
  {
    "lat": 55.6961,
    "lng": 37.505,
    "order": 16,
    "name": "Раменки",
    "admArea": "Западный административный округ",
    "district": "Раменки",
    "status": "действует"
  },
  {
    "lat": 55.8777,
    "lng": 37.4877,
    "order": 0,
    "name": "Ховрино",
    "admArea": "Северный административный округ",
    "district": "Ховрино",
    "status": "строится"
  },
  {
    "lat": 55.8541527,
    "lng": 37.4767265,
    "order": 1,
    "name": "Речной вокзал",
    "admArea": "Северный административный округ",
    "district": "Левобережный",
    "status": "действует"
  },
  {
    "lat": 55.8389778,
    "lng": 37.4875145,
    "order": 2,
    "name": "Водный стадион",
    "admArea": "Северный административный округ",
    "district": "Головинский",
    "status": "действует"
  },
  {
    "lat": 55.818924,
    "lng": 37.49779,
    "order": 3,
    "name": "Войковская",
    "admArea": "Северный административный округ",
    "district": "Войковский",
    "status": "действует"
  },
  {
    "lat": 55.8055649,
    "lng": 37.5152435,
    "order": 4,
    "name": "Сокол",
    "admArea": "Северный административный округ",
    "district": "Сокол",
    "status": "действует"
  },
  {
    "lat": 55.80044,
    "lng": 37.5304756,
    "order": 5,
    "name": "Аэропорт",
    "admArea": "Северный административный округ",
    "district": "Аэропорт",
    "status": "действует"
  },
  {
    "lat": 55.7897034,
    "lng": 37.5582123,
    "order": 6,
    "name": "Динамо",
    "admArea": "Северный административный округ",
    "district": "Аэропорт",
    "status": "действует"
  },
  {
    "lat": 55.77744,
    "lng": 37.5821075,
    "order": 7,
    "name": "Белорусская",
    "admArea": "Центральный административный округ",
    "district": "Тверской",
    "status": "действует"
  },
  {
    "lat": 55.76981,
    "lng": 37.59619,
    "order": 8,
    "name": "Маяковская",
    "admArea": "Центральный административный округ",
    "district": "Тверской",
    "status": "действует"
  },
  {
    "lat": 55.7653427,
    "lng": 37.6039162,
    "order": 9,
    "name": "Тверская",
    "admArea": "Центральный административный округ",
    "district": "Тверской",
    "status": "действует"
  },
  {
    "lat": 55.75881,
    "lng": 37.61768,
    "order": 10,
    "name": "Театральная",
    "admArea": "Центральный административный округ",
    "district": "Тверской",
    "status": "действует"
  },
  {
    "lat": 55.74239,
    "lng": 37.62928,
    "order": 11,
    "name": "Новокузнецкая",
    "admArea": "Центральный административный округ",
    "district": "Замоскворечье",
    "status": "действует"
  },
  {
    "lat": 55.72974,
    "lng": 37.6386948,
    "order": 12,
    "name": "Павелецкая",
    "admArea": "Центральный административный округ",
    "district": "Замоскворечье",
    "status": "действует"
  },
  {
    "lat": 55.7066345,
    "lng": 37.65701,
    "order": 13,
    "name": "Автозаводская",
    "admArea": "Южный административный округ",
    "district": "Даниловский",
    "status": "действует"
  },
  {
    "lat": 55.695,
    "lng": 37.6641655,
    "order": 14,
    "name": "Технопарк",
    "admArea": "Южный административный округ",
    "district": "Нагатино-Садовники",
    "status": "действует"
  },
  {
    "lat": 55.67742,
    "lng": 37.66372,
    "order": 15,
    "name": "Коломенская",
    "admArea": "Южный административный округ",
    "district": "Нагатино-Садовники",
    "status": "действует"
  },
  {
    "lat": 55.6557465,
    "lng": 37.6496849,
    "order": 16,
    "name": "Каширская",
    "admArea": "Южный административный округ",
    "district": "Нагатино-Садовники",
    "status": "действует"
  },
  {
    "lat": 55.63611,
    "lng": 37.65622,
    "order": 17,
    "name": "Кантемировская",
    "admArea": "Южный административный округ",
    "district": "Царицыно",
    "status": "действует"
  },
  {
    "lat": 55.6209831,
    "lng": 37.6696129,
    "order": 18,
    "name": "Царицыно",
    "admArea": "Южный административный округ",
    "district": "Царицыно",
    "status": "действует"
  },
  {
    "lat": 55.61269,
    "lng": 37.6952133,
    "order": 19,
    "name": "Орехово",
    "admArea": "Южный административный округ",
    "district": "Орехово-Борисово Северное",
    "status": "действует"
  },
  {
    "lat": 55.61013,
    "lng": 37.71711,
    "order": 20,
    "name": "Домодедовская",
    "admArea": "Южный административный округ",
    "district": "Орехово-Борисово Южное",
    "status": "действует"
  },
  {
    "lat": 55.6140747,
    "lng": 37.7427,
    "order": 21,
    "name": "Красногвардейская",
    "admArea": "Южный административный округ",
    "district": "Зябликово",
    "status": "действует"
  },
  {
    "lat": 55.63349,
    "lng": 37.76568,
    "order": 22,
    "name": "Алма-Атинская",
    "admArea": "Южный административный округ",
    "district": "Братеево",
    "status": "действует"
  },
  {
    "lat": 55.8881035,
    "lng": 37.6615639,
    "order": 0,
    "name": "Медведково",
    "admArea": "Северо-Восточный административный округ",
    "district": "Северное Медведково",
    "status": "действует"
  },
  {
    "lat": 55.87064,
    "lng": 37.66434,
    "order": 1,
    "name": "Бабушкинская",
    "admArea": "Северо-Восточный административный округ",
    "district": "Бабушкинский",
    "status": "действует"
  },
  {
    "lat": 55.8555565,
    "lng": 37.6533775,
    "order": 2,
    "name": "Свиблово",
    "admArea": "Северо-Восточный административный округ",
    "district": "Свиблово",
    "status": "действует"
  },
  {
    "lat": 55.8445969,
    "lng": 37.63781,
    "order": 3,
    "name": "Ботанический сад",
    "admArea": "Северо-Восточный административный округ",
    "district": "Свиблово",
    "status": "действует"
  },
  {
    "lat": 55.8196259,
    "lng": 37.64075,
    "order": 4,
    "name": "ВДНХ",
    "admArea": "Северо-Восточный административный округ",
    "district": "Останкинский",
    "status": "действует"
  },
  {
    "lat": 55.8077927,
    "lng": 37.6387,
    "order": 5,
    "name": "Алексеевская",
    "admArea": "Северо-Восточный административный округ",
    "district": "Алексеевский",
    "status": "действует"
  },
  {
    "lat": 55.7924957,
    "lng": 37.6361122,
    "order": 6,
    "name": "Рижская",
    "admArea": "Центральный административный округ",
    "district": "Мещанский",
    "status": "действует"
  },
  {
    "lat": 55.781826,
    "lng": 37.6331978,
    "order": 7,
    "name": "Проспект Мира",
    "admArea": "Центральный административный округ",
    "district": "Мещанский",
    "status": "действует"
  },
  {
    "lat": 55.772316,
    "lng": 37.63285,
    "order": 8,
    "name": "Сухаревская",
    "admArea": "Центральный административный округ",
    "district": "Красносельский",
    "status": "действует"
  },
  {
    "lat": 55.76537,
    "lng": 37.63673,
    "order": 9,
    "name": "Тургеневская",
    "admArea": "Центральный административный округ",
    "district": "Красносельский",
    "status": "действует"
  },
  {
    "lat": 55.7564964,
    "lng": 37.6313248,
    "order": 10,
    "name": "Китай-город",
    "admArea": "Центральный административный округ",
    "district": "Тверской",
    "status": "действует"
  },
  {
    "lat": 55.74073,
    "lng": 37.6256256,
    "order": 11,
    "name": "Третьяковская",
    "admArea": "Центральный административный округ",
    "district": "Замоскворечье",
    "status": "действует"
  },
  {
    "lat": 55.73123,
    "lng": 37.61285,
    "order": 12,
    "name": "Октябрьская",
    "admArea": "Центральный административный округ",
    "district": "Якиманка",
    "status": "действует"
  },
  {
    "lat": 55.7188263,
    "lng": 37.60789,
    "order": 13,
    "name": "Шаболовская",
    "admArea": "Южный административный округ",
    "district": "Донской",
    "status": "действует"
  },
  {
    "lat": 55.70678,
    "lng": 37.58499,
    "order": 14,
    "name": "Ленинский проспект",
    "admArea": "Южный административный округ",
    "district": "Донской",
    "status": "действует"
  },
  {
    "lat": 55.6871452,
    "lng": 37.5723,
    "order": 15,
    "name": "Академическая",
    "admArea": "Юго-Западный административный округ",
    "district": "Академический",
    "status": "действует"
  },
  {
    "lat": 55.67767,
    "lng": 37.5625954,
    "order": 16,
    "name": "Профсоюзная",
    "admArea": "Юго-Западный административный округ",
    "district": "Академический",
    "status": "действует"
  },
  {
    "lat": 55.67008,
    "lng": 37.554493,
    "order": 17,
    "name": "Новые Черемушки",
    "admArea": "Юго-Западный административный округ",
    "district": "Черёмушки",
    "status": "действует"
  },
  {
    "lat": 55.65668,
    "lng": 37.5400734,
    "order": 18,
    "name": "Калужская",
    "admArea": "Юго-Западный административный округ",
    "district": "Обручевский",
    "status": "действует"
  },
  {
    "lat": 55.6423569,
    "lng": 37.5261154,
    "order": 19,
    "name": "Беляево",
    "admArea": "Юго-Западный административный округ",
    "district": "Коньково",
    "status": "действует"
  },
  {
    "lat": 55.63186,
    "lng": 37.5191574,
    "order": 20,
    "name": "Коньково",
    "admArea": "Юго-Западный административный округ",
    "district": "Тёплый Стан",
    "status": "действует"
  },
  {
    "lat": 55.61873,
    "lng": 37.5059128,
    "order": 21,
    "name": "Теплый Стан",
    "admArea": "Юго-Западный административный округ",
    "district": "Ясенево",
    "status": "действует"
  },
  {
    "lat": 55.6061821,
    "lng": 37.5334,
    "order": 22,
    "name": "Ясенево",
    "admArea": "Юго-Западный административный округ",
    "district": "Ясенево",
    "status": "действует"
  },
  {
    "lat": 55.6019478,
    "lng": 37.5530167,
    "order": 23,
    "name": "Новоясеневская",
    "admArea": "Юго-Западный административный округ",
    "district": "Ясенево",
    "status": "действует"
  },
  {
    "lat": 55.8149147,
    "lng": 37.7322273,
    "order": 0,
    "name": "Бульвар Рокоссовского",
    "admArea": "Восточный административный округ",
    "district": "Богородское",
    "status": "действует"
  },
  {
    "lat": 55.8027878,
    "lng": 37.74486,
    "order": 1,
    "name": "Черкизовская",
    "admArea": "Восточный административный округ",
    "district": "Преображенское",
    "status": "действует"
  },
  {
    "lat": 55.79632,
    "lng": 37.71358,
    "order": 2,
    "name": "Преображенская площадь",
    "admArea": "Восточный административный округ",
    "district": "Преображенское",
    "status": "действует"
  },
  {
    "lat": 55.7892838,
    "lng": 37.6798935,
    "order": 3,
    "name": "Сокольники",
    "admArea": "Восточный административный округ",
    "district": "Сокольники",
    "status": "строится"
  },
  {
    "lat": 55.780014,
    "lng": 37.6660957,
    "order": 4,
    "name": "Красносельская",
    "admArea": "Центральный административный округ",
    "district": "Красносельский",
    "status": "действует"
  },
  {
    "lat": 55.77407,
    "lng": 37.6545639,
    "order": 5,
    "name": "Комсомольская",
    "admArea": "Центральный административный округ",
    "district": "Красносельский",
    "status": "действует"
  },
  {
    "lat": 55.7683067,
    "lng": 37.6478,
    "order": 6,
    "name": "Красные ворота",
    "admArea": "Центральный административный округ",
    "district": "Красносельский",
    "status": "действует"
  },
  {
    "lat": 55.76499,
    "lng": 37.6382942,
    "order": 7,
    "name": "Чистые пруды",
    "admArea": "Центральный административный округ",
    "district": "Басманный",
    "status": "действует"
  },
  {
    "lat": 55.7598877,
    "lng": 37.6253357,
    "order": 8,
    "name": "Лубянка",
    "admArea": "Центральный административный округ",
    "district": "Тверской",
    "status": "действует"
  },
  {
    "lat": 55.75723,
    "lng": 37.615078,
    "order": 9,
    "name": "Охотный ряд",
    "admArea": "Центральный административный округ",
    "district": "Тверской",
    "status": "действует"
  },
  {
    "lat": 55.7521248,
    "lng": 37.61039,
    "order": 10,
    "name": "Библиотека имени Ленина",
    "admArea": "Центральный административный округ",
    "district": "Арбат",
    "status": "действует"
  },
  {
    "lat": 55.7452965,
    "lng": 37.6042175,
    "order": 11,
    "name": "Кропоткинская",
    "admArea": "Центральный административный округ",
    "district": "Хамовники",
    "status": "действует"
  },
  {
    "lat": 55.7361641,
    "lng": 37.5950279,
    "order": 12,
    "name": "Парк культуры",
    "admArea": "Центральный административный округ",
    "district": "Хамовники",
    "status": "действует"
  },
  {
    "lat": 55.7274628,
    "lng": 37.58022,
    "order": 13,
    "name": "Фрунзенская",
    "admArea": "Центральный административный округ",
    "district": "Хамовники",
    "status": "действует"
  },
  {
    "lat": 55.72239,
    "lng": 37.5620422,
    "order": 14,
    "name": "Спортивная",
    "admArea": "Центральный административный округ",
    "district": "Хамовники",
    "status": "действует"
  },
  {
    "lat": 55.7091675,
    "lng": 37.5572929,
    "order": 15,
    "name": "Воробьевы горы",
    "admArea": "Западный административный округ",
    "district": "Раменки",
    "status": "действует"
  },
  {
    "lat": 55.69329,
    "lng": 37.53451,
    "order": 16,
    "name": "Университет",
    "admArea": "Западный административный округ",
    "district": "Раменки",
    "status": "действует"
  },
  {
    "lat": 55.676548,
    "lng": 37.5045853,
    "order": 17,
    "name": "Проспект Вернадского",
    "admArea": "Западный административный округ",
    "district": "Раменки",
    "status": "строится"
  },
  {
    "lat": 55.663147,
    "lng": 37.4828529,
    "order": 18,
    "name": "Юго-Западная",
    "admArea": "Западный административный округ",
    "district": "Тропарёво-Никулино",
    "status": "действует"
  },
  {
    "lat": 55.6459,
    "lng": 37.4725,
    "order": 19,
    "name": "Тропарево",
    "admArea": "Западный административный округ",
    "district": "Тропарёво-Никулино",
    "status": "действует"
  },
  {
    "lat": 55.633,
    "lng": 37.4419,
    "order": 20,
    "name": "Румянцево",
    "admArea": "Новомосковский административный округ",
    "district": "поселение Московский",
    "status": "действует"
  },
  {
    "lat": 55.6227,
    "lng": 37.424,
    "order": 21,
    "name": "Саларьево",
    "admArea": "Западный административный округ",
    "district": "Солнцево",
    "status": "действует"
  },
  {
    "lat": 55.8099632,
    "lng": 37.79826,
    "order": 0,
    "name": "Щелковская",
    "admArea": "Восточный административный округ",
    "district": "Гольяново",
    "status": "действует"
  },
  {
    "lat": 55.7943764,
    "lng": 37.7993622,
    "order": 1,
    "name": "Первомайская",
    "admArea": "Восточный административный округ",
    "district": "Измайлово",
    "status": "действует"
  },
  {
    "lat": 55.7877121,
    "lng": 37.7798958,
    "order": 2,
    "name": "Измайловская",
    "admArea": "Восточный административный округ",
    "district": "Измайлово",
    "status": "действует"
  },
  {
    "lat": 55.7884026,
    "lng": 37.74882,
    "order": 3,
    "name": "Партизанская",
    "admArea": "Восточный административный округ",
    "district": "Измайлово",
    "status": "действует"
  },
  {
    "lat": 55.7830963,
    "lng": 37.7192879,
    "order": 4,
    "name": "Семеновская",
    "admArea": "Восточный административный округ",
    "district": "Соколиная Гора",
    "status": "действует"
  },
  {
    "lat": 55.78206,
    "lng": 37.7053,
    "order": 5,
    "name": "Электрозаводская",
    "admArea": "Восточный административный округ",
    "district": "Соколиная Гора",
    "status": "действует"
  },
  {
    "lat": 55.7724037,
    "lng": 37.67904,
    "order": 6,
    "name": "Бауманская",
    "admArea": "Центральный административный округ",
    "district": "Басманный",
    "status": "действует"
  },
  {
    "lat": 55.75674,
    "lng": 37.62236,
    "order": 7,
    "name": "Площадь Революции",
    "admArea": "Центральный административный округ",
    "district": "Тверской",
    "status": "действует"
  },
  {
    "lat": 55.758564,
    "lng": 37.65904,
    "order": 8,
    "name": "Курская",
    "admArea": "Центральный административный округ",
    "district": "Басманный",
    "status": "действует"
  },
  {
    "lat": 55.75231,
    "lng": 37.60349,
    "order": 9,
    "name": "Арбатская",
    "admArea": "Центральный административный округ",
    "district": "Арбат",
    "status": "действует"
  },
  {
    "lat": 55.74771,
    "lng": 37.5838,
    "order": 10,
    "name": "Смоленская",
    "admArea": "Центральный административный округ",
    "district": "Арбат",
    "status": "действует"
  },
  {
    "lat": 55.74312,
    "lng": 37.5641327,
    "order": 11,
    "name": "Киевская",
    "admArea": "Западный административный округ",
    "district": "Дорогомилово",
    "status": "действует"
  },
  {
    "lat": 55.73568,
    "lng": 37.5168648,
    "order": 12,
    "name": "Парк Победы",
    "admArea": "Западный административный округ",
    "district": "Дорогомилово",
    "status": "строится"
  },
  {
    "lat": 55.72954,
    "lng": 37.470974,
    "order": 13,
    "name": "Славянский бульвар",
    "admArea": "Западный административный округ",
    "district": "Фили-Давыдково",
    "status": "действует"
  },
  {
    "lat": 55.7306328,
    "lng": 37.44512,
    "order": 14,
    "name": "Кунцевская",
    "admArea": "Западный административный округ",
    "district": "Кунцево",
    "status": "строится"
  },
  {
    "lat": 55.741375,
    "lng": 37.4156265,
    "order": 15,
    "name": "Молодежная",
    "admArea": "Западный административный округ",
    "district": "Кунцево",
    "status": "действует"
  },
  {
    "lat": 55.7568436,
    "lng": 37.40814,
    "order": 16,
    "name": "Крылатское",
    "admArea": "Западный административный округ",
    "district": "Крылатское",
    "status": "действует"
  },
  {
    "lat": 55.80383,
    "lng": 37.4024048,
    "order": 17,
    "name": "Строгино",
    "admArea": "Северо-Западный административный округ",
    "district": "Строгино",
    "status": "действует"
  },
  {
    "lat": 55.82334,
    "lng": 37.3852158,
    "order": 18,
    "name": "Мякинино",
    "admArea": "Северо-Западный административный округ",
    "district": "Строгино",
    "status": "действует"
  },
  {
    "lat": 55.8351555,
    "lng": 37.3824539,
    "order": 19,
    "name": "Волоколамская",
    "admArea": "Северо-Западный административный округ",
    "district": "Митино",
    "status": "действует"
  },
  {
    "lat": 55.8461,
    "lng": 37.36122,
    "order": 20,
    "name": "Митино",
    "admArea": "Северо-Западный административный округ",
    "district": "Митино",
    "status": "действует"
  },
  {
    "lat": 55.8536339,
    "lng": 37.3531075,
    "order": 21,
    "name": "Пятницкое шоссе",
    "admArea": "Северо-Западный административный округ",
    "district": "Митино",
    "status": "действует"
  },
  {
    "lat": 55.7308159,
    "lng": 37.4467545,
    "order": 0,
    "name": "Кунцевская",
    "admArea": "Западный административный округ",
    "district": "Кунцево",
    "status": "строится"
  },
  {
    "lat": 55.7360268,
    "lng": 37.46673,
    "order": 1,
    "name": "Пионерская",
    "admArea": "Западный административный округ",
    "district": "Фили-Давыдково",
    "status": "действует"
  },
  {
    "lat": 55.739666,
    "lng": 37.483902,
    "order": 2,
    "name": "Филевский парк",
    "admArea": "Западный административный округ",
    "district": "Фили-Давыдково",
    "status": "действует"
  },
  {
    "lat": 55.7435455,
    "lng": 37.4970436,
    "order": 3,
    "name": "Багратионовская",
    "admArea": "Западный административный округ",
    "district": "Филёвский Парк",
    "status": "действует"
  },
  {
    "lat": 55.74676,
    "lng": 37.5140343,
    "order": 4,
    "name": "Фили",
    "admArea": "Западный административный округ",
    "district": "Филёвский Парк",
    "status": "действует"
  },
  {
    "lat": 55.7405434,
    "lng": 37.5341,
    "order": 5,
    "name": "Кутузовская",
    "admArea": "Западный административный округ",
    "district": "Дорогомилово",
    "status": "действует"
  },
  {
    "lat": 55.73876,
    "lng": 37.54842,
    "order": 6,
    "name": "Студенческая",
    "admArea": "Западный административный округ",
    "district": "Дорогомилово",
    "status": "действует"
  },
  {
    "lat": 55.7431679,
    "lng": 37.5654259,
    "order": 7,
    "name": "Киевская",
    "admArea": "Западный административный округ",
    "district": "Дорогомилово",
    "status": "действует"
  },
  {
    "lat": 55.7490845,
    "lng": 37.5821724,
    "order": 8,
    "name": "Смоленская",
    "admArea": "Центральный административный округ",
    "district": "Арбат",
    "status": "действует"
  },
  {
    "lat": 55.75212,
    "lng": 37.6015549,
    "order": 9,
    "name": "Арбатская",
    "admArea": "Центральный административный округ",
    "district": "Арбат",
    "status": "действует"
  },
  {
    "lat": 55.7522545,
    "lng": 37.6087761,
    "order": 10,
    "name": "Александровский сад",
    "admArea": "Центральный административный округ",
    "district": "Тверской",
    "status": "действует"
  },
  {
    "lat": 55.7502441,
    "lng": 37.54264,
    "order": 11,
    "name": "Выставочная",
    "admArea": "Центральный административный округ",
    "district": "Пресненский",
    "status": "действует"
  },
  {
    "lat": 55.7483253,
    "lng": 37.5332832,
    "order": 12,
    "name": "Международная",
    "admArea": "Центральный административный округ",
    "district": "Пресненский",
    "status": "действует"
  },
  {
    "lat": 55.8990326,
    "lng": 37.58647,
    "order": 0,
    "name": "Алтуфьево",
    "admArea": "Северо-Восточный административный округ",
    "district": "Бибирево",
    "status": "действует"
  },
  {
    "lat": 55.88387,
    "lng": 37.6030121,
    "order": 1,
    "name": "Бибирево",
    "admArea": "Северо-Восточный административный округ",
    "district": "Бибирево",
    "status": "действует"
  },
  {
    "lat": 55.8642731,
    "lng": 37.6050644,
    "order": 2,
    "name": "Отрадное",
    "admArea": "Северо-Восточный административный округ",
    "district": "Отрадное",
    "status": "действует"
  },
  {
    "lat": 55.8482361,
    "lng": 37.59045,
    "order": 3,
    "name": "Владыкино",
    "admArea": "Северо-Восточный административный округ",
    "district": "Отрадное",
    "status": "действует"
  },
  {
    "lat": 55.8365631,
    "lng": 37.5755119,
    "order": 4,
    "name": "Петровско-Разумовская",
    "admArea": "Северный административный округ",
    "district": "Тимирязевский",
    "status": "действует"
  },
  {
    "lat": 55.81866,
    "lng": 37.5744972,
    "order": 5,
    "name": "Тимирязевская",
    "admArea": "Северный административный округ",
    "district": "Тимирязевский",
    "status": "действует"
  },
  {
    "lat": 55.8080559,
    "lng": 37.5817337,
    "order": 6,
    "name": "Дмитровская",
    "admArea": "Северо-Восточный административный округ",
    "district": "Бутырский",
    "status": "действует"
  },
  {
    "lat": 55.7940521,
    "lng": 37.587162,
    "order": 7,
    "name": "Савеловская",
    "admArea": "Северо-Восточный административный округ",
    "district": "Бутырский",
    "status": "действует"
  },
  {
    "lat": 55.7819977,
    "lng": 37.59914,
    "order": 8,
    "name": "Менделеевская",
    "admArea": "Центральный административный округ",
    "district": "Тверской",
    "status": "действует"
  },
  {
    "lat": 55.7716522,
    "lng": 37.6204643,
    "order": 9,
    "name": "Цветной бульвар",
    "admArea": "Центральный административный округ",
    "district": "Тверской",
    "status": "действует"
  },
  {
    "lat": 55.7657471,
    "lng": 37.6084938,
    "order": 10,
    "name": "Чеховская",
    "admArea": "Центральный административный округ",
    "district": "Тверской",
    "status": "действует"
  },
  {
    "lat": 55.7504,
    "lng": 37.60934,
    "order": 11,
    "name": "Боровицкая",
    "admArea": "Центральный административный округ",
    "district": "Арбат",
    "status": "действует"
  },
  {
    "lat": 55.7367935,
    "lng": 37.6185951,
    "order": 12,
    "name": "Полянка",
    "admArea": "Центральный административный округ",
    "district": "Якиманка",
    "status": "действует"
  },
  {
    "lat": 55.7265472,
    "lng": 37.62479,
    "order": 13,
    "name": "Серпуховская",
    "admArea": "Центральный административный округ",
    "district": "Замоскворечье",
    "status": "действует"
  },
  {
    "lat": 55.70961,
    "lng": 37.62257,
    "order": 14,
    "name": "Тульская",
    "admArea": "Южный административный округ",
    "district": "Даниловский",
    "status": "действует"
  },
  {
    "lat": 55.6821,
    "lng": 37.62092,
    "order": 15,
    "name": "Нагатинская",
    "admArea": "Южный административный округ",
    "district": "Нагорный",
    "status": "действует"
  },
  {
    "lat": 55.6729622,
    "lng": 37.6103973,
    "order": 16,
    "name": "Нагорная",
    "admArea": "Южный административный округ",
    "district": "Нагорный",
    "status": "действует"
  },
  {
    "lat": 55.66238,
    "lng": 37.6052742,
    "order": 17,
    "name": "Нахимовский проспект",
    "admArea": "Юго-Западный административный округ",
    "district": "Зюзино",
    "status": "действует"
  },
  {
    "lat": 55.65145,
    "lng": 37.59809,
    "order": 18,
    "name": "Севастопольская",
    "admArea": "Юго-Западный административный округ",
    "district": "Зюзино",
    "status": "действует"
  },
  {
    "lat": 55.6405373,
    "lng": 37.6060638,
    "order": 19,
    "name": "Чертановская",
    "admArea": "Южный административный округ",
    "district": "Чертаново Северное",
    "status": "действует"
  },
  {
    "lat": 55.6224365,
    "lng": 37.6090469,
    "order": 20,
    "name": "Южная",
    "admArea": "Южный административный округ",
    "district": "Чертаново Центральное",
    "status": "действует"
  },
  {
    "lat": 55.6109619,
    "lng": 37.6023865,
    "order": 21,
    "name": "Пражская",
    "admArea": "Южный административный округ",
    "district": "Чертаново Центральное",
    "status": "действует"
  },
  {
    "lat": 55.5967522,
    "lng": 37.6014977,
    "order": 22,
    "name": "Улица Академика Янгеля",
    "admArea": "Южный административный округ",
    "district": "Чертаново Южное",
    "status": "действует"
  },
  {
    "lat": 55.583477,
    "lng": 37.597,
    "order": 23,
    "name": "Аннино",
    "admArea": "Южный административный округ",
    "district": "Чертаново Южное",
    "status": "действует"
  },
  {
    "lat": 55.5682,
    "lng": 37.5768547,
    "order": 24,
    "name": "Бульвар Дмитрия Донского",
    "admArea": "Юго-Западный административный округ",
    "district": "Северное Бутово",
    "status": "действует"
  },
  {
    "lat": 55.8596764,
    "lng": 37.43681,
    "order": 0,
    "name": "Планерная",
    "admArea": "Северо-Западный административный округ",
    "district": "Северное Тушино",
    "status": "действует"
  },
  {
    "lat": 55.84926,
    "lng": 37.44076,
    "order": 1,
    "name": "Сходненская",
    "admArea": "Северо-Западный административный округ",
    "district": "Южное Тушино",
    "status": "действует"
  },
  {
    "lat": 55.8254776,
    "lng": 37.4370232,
    "order": 2,
    "name": "Тушинская",
    "admArea": "Северо-Западный административный округ",
    "district": "Покровское-Стрешнево",
    "status": "действует"
  },
  {
    "lat": 55.8182,
    "lng": 37.4352,
    "order": 3,
    "name": "Спартак",
    "admArea": "Северо-Западный административный округ",
    "district": "Покровское-Стрешнево",
    "status": "действует"
  },
  {
    "lat": 55.8094,
    "lng": 37.46324,
    "order": 4,
    "name": "Щукинская",
    "admArea": "Северо-Западный административный округ",
    "district": "Щукино",
    "status": "действует"
  },
  {
    "lat": 55.79358,
    "lng": 37.4933167,
    "order": 5,
    "name": "Октябрьское поле",
    "admArea": "Северо-Западный административный округ",
    "district": "Щукино",
    "status": "действует"
  },
  {
    "lat": 55.7772026,
    "lng": 37.5178947,
    "order": 6,
    "name": "Полежаевская",
    "admArea": "Северный административный округ",
    "district": "Хорошёвский",
    "status": "действует"
  },
  {
    "lat": 55.7735062,
    "lng": 37.545517,
    "order": 7,
    "name": "Беговая",
    "admArea": "Центральный административный округ",
    "district": "Пресненский",
    "status": "действует"
  },
  {
    "lat": 55.7639427,
    "lng": 37.56227,
    "order": 8,
    "name": "Улица 1905 года",
    "admArea": "Центральный административный округ",
    "district": "Пресненский",
    "status": "действует"
  },
  {
    "lat": 55.76079,
    "lng": 37.58124,
    "order": 9,
    "name": "Баррикадная",
    "admArea": "Центральный административный округ",
    "district": "Пресненский",
    "status": "действует"
  },
  {
    "lat": 55.7656059,
    "lng": 37.6043549,
    "order": 10,
    "name": "Пушкинская",
    "admArea": "Центральный административный округ",
    "district": "Тверской",
    "status": "действует"
  },
  {
    "lat": 55.7614975,
    "lng": 37.624424,
    "order": 11,
    "name": "Кузнецкий мост",
    "admArea": "Центральный административный округ",
    "district": "Мещанский",
    "status": "действует"
  },
  {
    "lat": 55.75436,
    "lng": 37.6338768,
    "order": 12,
    "name": "Китай-город",
    "admArea": "Центральный административный округ",
    "district": "Тверской",
    "status": "действует"
  },
  {
    "lat": 55.739502,
    "lng": 37.6536064,
    "order": 13,
    "name": "Таганская",
    "admArea": "Центральный административный округ",
    "district": "Таганский",
    "status": "действует"
  },
  {
    "lat": 55.7315445,
    "lng": 37.6669159,
    "order": 14,
    "name": "Пролетарская",
    "admArea": "Центральный административный округ",
    "district": "Таганский",
    "status": "действует"
  },
  {
    "lat": 55.7255478,
    "lng": 37.6851959,
    "order": 15,
    "name": "Волгоградский проспект",
    "admArea": "Юго-Восточный административный округ",
    "district": "Южнопортовый",
    "status": "действует"
  },
  {
    "lat": 55.70921,
    "lng": 37.7321167,
    "order": 16,
    "name": "Текстильщики",
    "admArea": "Юго-Восточный административный округ",
    "district": "Текстильщики",
    "status": "действует"
  },
  {
    "lat": 55.7054939,
    "lng": 37.7632942,
    "order": 17,
    "name": "Кузьминки",
    "admArea": "Юго-Восточный административный округ",
    "district": "Кузьминки",
    "status": "действует"
  },
  {
    "lat": 55.71614,
    "lng": 37.7926941,
    "order": 18,
    "name": "Рязанский проспект",
    "admArea": "Юго-Восточный административный округ",
    "district": "Рязанский",
    "status": "действует"
  },
  {
    "lat": 55.7159843,
    "lng": 37.8167877,
    "order": 19,
    "name": "Выхино",
    "admArea": "Юго-Восточный административный округ",
    "district": "Выхино-Жулебино",
    "status": "действует"
  },
  {
    "lat": 55.7020378,
    "lng": 37.8510437,
    "order": 20,
    "name": "Лермонтовский проспект",
    "admArea": "Юго-Восточный административный округ",
    "district": "Выхино-Жулебино",
    "status": "действует"
  },
  {
    "lat": 55.6847229,
    "lng": 37.85583,
    "order": 21,
    "name": "Жулебино",
    "admArea": "Юго-Восточный административный округ",
    "district": "Выхино-Жулебино",
    "status": "действует"
  },
  {
    "lat": 55.6743,
    "lng": 37.8582,
    "order": 22,
    "name": "Котельники",
    "admArea": "Юго-Восточный административный округ",
    "district": "Выхино-Жулебино",
    "status": "действует"
  },
  {
    "lat": 55.7796059,
    "lng": 37.6012535,
    "order": 0,
    "name": "Новослободская",
    "admArea": "Центральный административный округ",
    "district": "Тверской",
    "status": "действует"
  },
  {
    "lat": 55.779583,
    "lng": 37.6336441,
    "order": 1,
    "name": "Проспект Мира",
    "admArea": "Центральный административный округ",
    "district": "Мещанский",
    "status": "действует"
  },
  {
    "lat": 55.7756729,
    "lng": 37.6547737,
    "order": 2,
    "name": "Комсомольская",
    "admArea": "Центральный административный округ",
    "district": "Красносельский",
    "status": "действует"
  },
  {
    "lat": 55.7586327,
    "lng": 37.66106,
    "order": 3,
    "name": "Курская",
    "admArea": "Центральный административный округ",
    "district": "Басманный",
    "status": "действует"
  },
  {
    "lat": 55.7423973,
    "lng": 37.6533356,
    "order": 4,
    "name": "Таганская",
    "admArea": "Центральный административный округ",
    "district": "Таганский",
    "status": "действует"
  },
  {
    "lat": 55.7314148,
    "lng": 37.6362953,
    "order": 5,
    "name": "Павелецкая",
    "admArea": "Центральный административный округ",
    "district": "Замоскворечье",
    "status": "действует"
  },
  {
    "lat": 55.7289925,
    "lng": 37.62253,
    "order": 6,
    "name": "Добрынинская",
    "admArea": "Центральный административный округ",
    "district": "Замоскворечье",
    "status": "действует"
  },
  {
    "lat": 55.7292633,
    "lng": 37.61105,
    "order": 7,
    "name": "Октябрьская",
    "admArea": "Центральный административный округ",
    "district": "Якиманка",
    "status": "действует"
  },
  {
    "lat": 55.73522,
    "lng": 37.5930939,
    "order": 8,
    "name": "Парк культуры",
    "admArea": "Центральный административный округ",
    "district": "Хамовники",
    "status": "действует"
  },
  {
    "lat": 55.74361,
    "lng": 37.56735,
    "order": 10,
    "name": "Киевская",
    "admArea": "Западный административный округ",
    "district": "Дорогомилово",
    "status": "действует"
  },
  {
    "lat": 55.76038,
    "lng": 37.5771141,
    "order": 11,
    "name": "Краснопресненская",
    "admArea": "Центральный административный округ",
    "district": "Пресненский",
    "status": "действует"
  },
  {
    "lat": 55.77518,
    "lng": 37.5823021,
    "order": 12,
    "name": "Белорусская",
    "admArea": "Центральный административный округ",
    "district": "Тверской",
    "status": "действует"
  },
  {
    "lat": 55.85566,
    "lng": 37.56282,
    "order": 0,
    "name": "Верхние Лихоборы",
    "admArea": "Северный административный округ",
    "district": "Бескудниковский",
    "status": "строится"
  },
  {
    "lat": 55.86483,
    "lng": 37.55005,
    "order": 1,
    "name": "Селигерская",
    "admArea": "Северный административный округ",
    "district": "Бескудниковский",
    "status": "строится"
  },
  {
    "lat": 55.84889,
    "lng": 37.57111,
    "order": 2,
    "name": "Окружная",
    "admArea": "Северный административный округ",
    "district": "Тимирязевский",
    "status": "строится"
  },
  {
    "lat": 55.8366661,
    "lng": 37.5755577,
    "order": 3,
    "name": "Петровско-Разумовская",
    "admArea": "Северный административный округ",
    "district": "Тимирязевский",
    "status": "действует"
  },
  {
    "lat": 55.8227768,
    "lng": 37.5880547,
    "order": 4,
    "name": "Фонвизинская",
    "admArea": "Северо-Восточный административный округ",
    "district": "Бутырский",
    "status": "действует"
  },
  {
    "lat": 55.81333,
    "lng": 37.60278,
    "order": 5,
    "name": "Бутырская",
    "admArea": "Северо-Восточный административный округ",
    "district": "Бутырский",
    "status": "действует"
  },
  {
    "lat": 55.7937241,
    "lng": 37.61618,
    "order": 6,
    "name": "Марьина Роща",
    "admArea": "Северо-Восточный административный округ",
    "district": "Марьина Роща",
    "status": "действует"
  },
  {
    "lat": 55.7816658,
    "lng": 37.6138878,
    "order": 7,
    "name": "Достоевская",
    "admArea": "Центральный административный округ",
    "district": "Тверской",
    "status": "действует"
  },
  {
    "lat": 55.76771,
    "lng": 37.6219254,
    "order": 8,
    "name": "Трубная",
    "admArea": "Центральный административный округ",
    "district": "Мещанский",
    "status": "действует"
  },
  {
    "lat": 55.7661057,
    "lng": 37.63569,
    "order": 9,
    "name": "Сретенский бульвар",
    "admArea": "Центральный административный округ",
    "district": "Красносельский",
    "status": "действует"
  },
  {
    "lat": 55.75595,
    "lng": 37.6592941,
    "order": 10,
    "name": "Чкаловская",
    "admArea": "Центральный административный округ",
    "district": "Басманный",
    "status": "действует"
  },
  {
    "lat": 55.74703,
    "lng": 37.6799965,
    "order": 11,
    "name": "Римская",
    "admArea": "Центральный административный округ",
    "district": "Таганский",
    "status": "действует"
  },
  {
    "lat": 55.7322769,
    "lng": 37.6653252,
    "order": 12,
    "name": "Крестьянская застава",
    "admArea": "Центральный административный округ",
    "district": "Таганский",
    "status": "действует"
  },
  {
    "lat": 55.71807,
    "lng": 37.6762581,
    "order": 13,
    "name": "Дубровка",
    "admArea": "Юго-Восточный административный округ",
    "district": "Южнопортовый",
    "status": "действует"
  },
  {
    "lat": 55.7061577,
    "lng": 37.68544,
    "order": 14,
    "name": "Кожуховская",
    "admArea": "Юго-Восточный административный округ",
    "district": "Южнопортовый",
    "status": "действует"
  },
  {
    "lat": 55.69292,
    "lng": 37.7283363,
    "order": 15,
    "name": "Печатники",
    "admArea": "Юго-Восточный административный округ",
    "district": "Печатники",
    "status": "действует"
  },
  {
    "lat": 55.6904449,
    "lng": 37.7543144,
    "order": 16,
    "name": "Волжская",
    "admArea": "Юго-Восточный административный округ",
    "district": "Кузьминки",
    "status": "действует"
  },
  {
    "lat": 55.6765976,
    "lng": 37.76164,
    "order": 17,
    "name": "Люблино",
    "admArea": "Юго-Восточный административный округ",
    "district": "Люблино",
    "status": "действует"
  },
  {
    "lat": 55.6588173,
    "lng": 37.7484169,
    "order": 18,
    "name": "Братиславская",
    "admArea": "Юго-Восточный административный округ",
    "district": "Марьино",
    "status": "действует"
  },
  {
    "lat": 55.64916,
    "lng": 37.7438431,
    "order": 19,
    "name": "Марьино",
    "admArea": "Юго-Восточный административный округ",
    "district": "Марьино",
    "status": "действует"
  },
  {
    "lat": 55.6325,
    "lng": 37.7433319,
    "order": 20,
    "name": "Борисово",
    "admArea": "Южный административный округ",
    "district": "Зябликово",
    "status": "действует"
  },
  {
    "lat": 55.621666,
    "lng": 37.74361,
    "order": 21,
    "name": "Шипиловская",
    "admArea": "Южный административный округ",
    "district": "Зябликово",
    "status": "действует"
  },
  {
    "lat": 55.6119423,
    "lng": 37.7452774,
    "order": 22,
    "name": "Зябликово",
    "admArea": "Южный административный округ",
    "district": "Зябликово",
    "status": "действует"
  },
  {
    "lat": 55.6543274,
    "lng": 37.6477051,
    "order": 0,
    "name": "Каширская",
    "admArea": "Южный административный округ",
    "district": "Нагатино-Садовники",
    "status": "действует"
  },
  {
    "lat": 55.6532936,
    "lng": 37.6195221,
    "order": 1,
    "name": "Варшавская",
    "admArea": "Южный административный округ",
    "district": "Москворечье-Сабурово",
    "status": "действует"
  },
  {
    "lat": 55.6529236,
    "lng": 37.5965729,
    "order": 2,
    "name": "Каховская",
    "admArea": "Юго-Западный административный округ",
    "district": "Зюзино",
    "status": "строится"
  },
  {
    "lat": 55.5379753,
    "lng": 37.5159,
    "order": 0,
    "name": "Бунинская аллея",
    "admArea": "Юго-Западный административный округ",
    "district": "Южное Бутово",
    "status": "действует"
  },
  {
    "lat": 55.5422821,
    "lng": 37.5320625,
    "order": 1,
    "name": "Улица Горчакова",
    "admArea": "Юго-Западный административный округ",
    "district": "Южное Бутово",
    "status": "действует"
  },
  {
    "lat": 55.545208,
    "lng": 37.5423279,
    "order": 2,
    "name": "Бульвар Адмирала Ушакова",
    "admArea": "Юго-Западный административный округ",
    "district": "Южное Бутово",
    "status": "действует"
  },
  {
    "lat": 55.5481033,
    "lng": 37.55272,
    "order": 3,
    "name": "Улица Скобелевская",
    "admArea": "Юго-Западный административный округ",
    "district": "Южное Бутово",
    "status": "действует"
  },
  {
    "lat": 55.5691948,
    "lng": 37.5760727,
    "order": 4,
    "name": "Улица Старокачаловская",
    "admArea": "Юго-Западный административный округ",
    "district": "Северное Бутово",
    "status": "действует"
  },
  {
    "lat": 55.5816574,
    "lng": 37.577816,
    "order": 5,
    "name": "Лесопарковая",
    "admArea": "Юго-Западный административный округ",
    "district": "Северное Бутово",
    "status": "действует"
  },
  {
    "lat": 55.6000671,
    "lng": 37.556057,
    "order": 6,
    "name": "Битцевский Парк",
    "admArea": "Юго-Западный административный округ",
    "district": "Ясенево",
    "status": "действует"
  },
  {
    "lat": 55.84889,
    "lng": 37.57111,
    "order": 0,
    "name": "Окружная",
    "admArea": "Северный административный округ",
    "district": "Тимирязевский",
    "status": "строится"
  },
  {
    "lat": 55.84722,
    "lng": 37.5919456,
    "order": 1,
    "name": "Владыкино",
    "admArea": "Северо-Восточный административный округ",
    "district": "Отрадное",
    "status": "действует"
  },
  {
    "lat": 55.8455544,
    "lng": 37.6402779,
    "order": 2,
    "name": "Ботанический сад",
    "admArea": "Северо-Восточный административный округ",
    "district": "Свиблово",
    "status": "действует"
  },
  {
    "lat": 55.8394432,
    "lng": 37.667778,
    "order": 3,
    "name": "Ростокино",
    "admArea": "Северо-Восточный административный округ",
    "district": "Ростокино",
    "status": "действует"
  },
  {
    "lat": 55.83,
    "lng": 37.7005577,
    "order": 4,
    "name": "Белокаменная",
    "admArea": "Восточный административный округ",
    "district": "Богородское",
    "status": "действует"
  },
  {
    "lat": 55.8172226,
    "lng": 37.7369423,
    "order": 5,
    "name": "Бульвар Рокоссовского",
    "admArea": "Восточный административный округ",
    "district": "Богородское",
    "status": "действует"
  },
  {
    "lat": 55.80322,
    "lng": 37.7457428,
    "order": 6,
    "name": "Локомотив",
    "admArea": "Восточный административный округ",
    "district": "Преображенское",
    "status": "действует"
  },
  {
    "lat": 55.7886124,
    "lng": 37.74278,
    "order": 7,
    "name": "Измайлово",
    "admArea": "Восточный административный округ",
    "district": "Соколиная Гора",
    "status": "действует"
  },
  {
    "lat": 55.77,
    "lng": 37.7452774,
    "order": 8,
    "name": "Соколиная Гора",
    "admArea": "Восточный административный округ",
    "district": "Соколиная Гора",
    "status": "действует"
  },
  {
    "lat": 55.7586327,
    "lng": 37.7484779,
    "order": 9,
    "name": "Шоссе Энтузиастов",
    "admArea": "Восточный административный округ",
    "district": "Перово",
    "status": "действует"
  },
  {
    "lat": 55.74111,
    "lng": 37.7344437,
    "order": 10,
    "name": "Андроновка",
    "admArea": "Восточный административный округ",
    "district": "Перово",
    "status": "действует"
  },
  {
    "lat": 55.7322235,
    "lng": 37.72825,
    "order": 11,
    "name": "Нижегородская",
    "admArea": "Юго-Восточный административный округ",
    "district": "Нижегородский",
    "status": "действует"
  },
  {
    "lat": 55.72389,
    "lng": 37.71611,
    "order": 12,
    "name": "Новохохловская",
    "admArea": "Юго-Восточный административный округ",
    "district": "Нижегородский",
    "status": "действует"
  },
  {
    "lat": 55.7183342,
    "lng": 37.6977768,
    "order": 13,
    "name": "Угрешская",
    "admArea": "Юго-Восточный административный округ",
    "district": "Печатники",
    "status": "действует"
  },
  {
    "lat": 55.71268,
    "lng": 37.6777763,
    "order": 14,
    "name": "Дубровка",
    "admArea": "Юго-Восточный административный округ",
    "district": "Южнопортовый",
    "status": "действует"
  },
  {
    "lat": 55.70631,
    "lng": 37.66314,
    "order": 15,
    "name": "Автозаводская",
    "admArea": "Южный административный округ",
    "district": "Даниловский",
    "status": "действует"
  },
  {
    "lat": 55.6983337,
    "lng": 37.6483345,
    "order": 16,
    "name": "ЗИЛ",
    "admArea": "Южный административный округ",
    "district": "Даниловский",
    "status": "действует"
  },
  {
    "lat": 55.69,
    "lng": 37.61889,
    "order": 17,
    "name": "Верхние Котлы",
    "admArea": "Южный административный округ",
    "district": "Нагорный",
    "status": "действует"
  },
  {
    "lat": 55.6900368,
    "lng": 37.605,
    "order": 18,
    "name": "Крымская",
    "admArea": "Южный административный округ",
    "district": "Донской",
    "status": "действует"
  },
  {
    "lat": 55.7069435,
    "lng": 37.5858345,
    "order": 19,
    "name": "Площадь Гагарина",
    "admArea": "Юго-Западный административный округ",
    "district": "Гагаринский",
    "status": "действует"
  },
  {
    "lat": 55.72028,
    "lng": 37.5630569,
    "order": 20,
    "name": "Лужники",
    "admArea": "Центральный административный округ",
    "district": "Хамовники",
    "status": "действует"
  },
  {
    "lat": 55.7408333,
    "lng": 37.5333328,
    "order": 21,
    "name": "Кутузовская",
    "admArea": "Западный административный округ",
    "district": "Дорогомилово",
    "status": "действует"
  },
  {
    "lat": 55.7472229,
    "lng": 37.5322227,
    "order": 22,
    "name": "Деловой центр",
    "admArea": "Центральный административный округ",
    "district": "Пресненский",
    "status": "действует"
  },
  {
    "lat": 55.7575,
    "lng": 37.5255547,
    "order": 23,
    "name": "Шелепиха",
    "admArea": "Центральный административный округ",
    "district": "Пресненский",
    "status": "действует"
  },
  {
    "lat": 55.77722,
    "lng": 37.50722,
    "order": 24,
    "name": "Хорошево",
    "admArea": "Северный административный округ",
    "district": "Хорошёвский",
    "status": "действует"
  },
  {
    "lat": 55.7877769,
    "lng": 37.5044441,
    "order": 25,
    "name": "Зорге",
    "admArea": "Северный административный округ",
    "district": "Хорошёвский",
    "status": "действует"
  },
  {
    "lat": 55.7991676,
    "lng": 37.49889,
    "order": 26,
    "name": "Панфиловская",
    "admArea": "Северный административный округ",
    "district": "Сокол",
    "status": "действует"
  },
  {
    "lat": 55.81361,
    "lng": 37.4869423,
    "order": 27,
    "name": "Стрешнево",
    "admArea": "Северный административный округ",
    "district": "Сокол",
    "status": "действует"
  },
  {
    "lat": 55.8258324,
    "lng": 37.4961128,
    "order": 28,
    "name": "Балтийская",
    "admArea": "Северный административный округ",
    "district": "Войковский",
    "status": "действует"
  },
  {
    "lat": 55.8396378,
    "lng": 37.52004,
    "order": 29,
    "name": "Коптево",
    "admArea": "Северный административный округ",
    "district": "Коптево",
    "status": "действует"
  },
  {
    "lat": 55.84722,
    "lng": 37.5513878,
    "order": 30,
    "name": "Лихоборы",
    "admArea": "Северный административный округ",
    "district": "Коптево",
    "status": "действует"
  },
  {
    "lat": 55.81905,
    "lng": 37.57888,
    "order": 0,
    "name": "Тимирязевская",
    "admArea": "Северный административный округ",
    "district": "Тимирязевский",
    "status": "действует"
  },
  {
    "lat": 55.8218765,
    "lng": 37.5912056,
    "order": 1,
    "name": "Улица Милашенкова",
    "admArea": "Северо-Восточный административный округ",
    "district": "Бутырский",
    "status": "действует"
  },
  {
    "lat": 55.8217964,
    "lng": 37.6089745,
    "order": 2,
    "name": "Телецентр",
    "admArea": "Северо-Восточный административный округ",
    "district": "Останкинский",
    "status": "действует"
  },
  {
    "lat": 55.82182,
    "lng": 37.6271667,
    "order": 3,
    "name": "Улица Академика Королева",
    "admArea": "Северо-Восточный административный округ",
    "district": "Останкинский",
    "status": "действует"
  },
  {
    "lat": 55.8240852,
    "lng": 37.6384926,
    "order": 4,
    "name": "Выставочный центр",
    "admArea": "Северо-Восточный административный округ",
    "district": "Останкинский",
    "status": "действует"
  },
  {
    "lat": 55.8293037,
    "lng": 37.6449966,
    "order": 5,
    "name": "Улица Сергея Эйзенштейна",
    "admArea": "Северо-Восточный административный округ",
    "district": "Останкинский",
    "status": "действует"
  },
  {
    "lat": 55.79233,
    "lng": 37.55952,
    "order": 0,
    "name": "Петровский парк",
    "admArea": "Северный административный округ",
    "district": "Аэропорт",
    "status": "строится"
  },
  {
    "lat": 55.78643,
    "lng": 37.53502,
    "order": 1,
    "name": "ЦСКА",
    "admArea": "Северный административный округ",
    "district": "Хорошёвский",
    "status": "строится"
  },
  {
    "lat": 55.77643,
    "lng": 37.51981,
    "order": 2,
    "name": "Хорошевская",
    "admArea": "Северный административный округ",
    "district": "Хорошёвский",
    "status": "действует"
  },
  {
    "lat": 55.75723,
    "lng": 37.52571,
    "order": 3,
    "name": "Шелепиха",
    "admArea": "Центральный административный округ",
    "district": "Пресненский",
    "status": "действует"
  },
  {
    "lat": 55.7491,
    "lng": 37.5395,
    "order": 4,
    "name": "Деловой центр",
    "admArea": "Центральный административный округ",
    "district": "Пресненский",
    "status": "действует"
  }
]